[{"label": "اشتهارد", "value": "Ashthard", "lat": 35.72459030151367, "long": 50.36147689819336}, {"label": "آسارا", "value": "Asara", "lat": 36.03144836425781, "long": 51.17387390136719}, {"label": "تنکمان", "value": "Tankman", "lat": 35.889408111572266, "long": 50.61488342285156}, {"label": "چهارباغ", "value": "Chaharbagh", "lat": 35.83815383911133, "long": 50.84798049926758}, {"label": "سیف آباد", "value": "Sifabad", "lat": 35.91147994995117, "long": 50.770538330078125}, {"label": "شهرجدیدهشتگرد", "value": "Shahrjdidhshtgrd", "lat": 35.98429489135742, "long": 50.74120330810547}, {"label": "طالقان", "value": "Talghan", "lat": 36.172996520996094, "long": 50.768489837646484}, {"label": "کرج", "value": "Karj", "lat": 35.7247200012207, "long": 50.95276641845703}, {"label": "کمال شهر", "value": "Kamalshhr", "lat": 35.846038818359375, "long": 50.88404846191406}, {"label": "کوهسار", "value": "Kohsar", "lat": 35.95566940307617, "long": 50.79353332519531}, {"label": "گرمدره", "value": "Garmdrh", "lat": 35.74454116821289, "long": 51.06885528564453}, {"label": "ماهدشت", "value": "Mahdsht", "lat": 35.727561950683594, "long": 50.806129455566406}, {"label": "محمدشهر", "value": "Mahmdshhr", "lat": 35.73664474487305, "long": 50.89955139160156}, {"label": "مشکین دشت", "value": "Mashkindsht", "lat": 35.74838638305664, "long": 50.94078063964844}, {"label": "نظرآباد", "value": "Nazrabad", "lat": 35.95195007324219, "long": 50.60453414916992}, {"label": "هشتگرد", "value": "Hashtgrd", "lat": 35.95068359375, "long": 50.683860778808594}]