[{"label": "امیرکلا", "value": "Amirkla", "lat": 36.59878158569336, "long": 52.66273880004883}, {"label": "ایزدشهر", "value": "Aizdshhr", "lat": 36.60129165649414, "long": 52.13937759399414}, {"label": "آلاشت", "value": "Alasht", "lat": 36.06636047363281, "long": 52.837913513183594}, {"label": "آمل", "value": "Aml", "lat": 36.477455139160156, "long": 52.3558349609375}, {"label": "بابل", "value": "Babl", "lat": 36.52119445800781, "long": 52.67593002319336}, {"label": "بابلسر", "value": "Bablsr", "lat": 36.698936462402344, "long": 52.64933776855469}, {"label": "بلده", "value": "Baldh", "lat": 36.20122146606445, "long": 51.80610275268555}, {"label": "بهشهر", "value": "Bahshhr", "lat": 36.69554138183594, "long": 53.53464126586914}, {"label": "بهنمیر", "value": "Bahnmir", "lat": 36.670204162597656, "long": 52.76227569580078}, {"label": "پل سفید", "value": "Palsfid", "lat": 36.11366653442383, "long": 53.0577507019043}, {"label": "پول", "value": "Pol", "lat": 36.39558029174805, "long": 51.58979415893555}, {"label": "تنکابن", "value": "Tankabn", "lat": 36.81513977050781, "long": 50.87436294555664}, {"label": "جویبار", "value": "Joybar", "lat": 36.64100646972656, "long": 52.89982604980469}, {"label": "چالوس", "value": "Chalos", "lat": 36.653987884521484, "long": 51.424468994140625}, {"label": "چمستان", "value": "Chamstan", "lat": 36.482398986816406, "long": 52.121131896972656}, {"label": "خرم آباد ", "value": "Kharmabad", "lat": 36.786312103271484, "long": 50.867374420166016}, {"label": "خلیل شهر", "value": "Khalilshhr", "lat": 36.70176315307617, "long": 53.63957214355469}, {"label": "خوش رودپی", "value": "Khoshrodpi", "lat": 36.3714599609375, "long": 52.56569290161133}, {"label": "دابودشت", "value": "Dabodsht", "lat": 36.48066329956055, "long": 52.4520378112793}, {"label": "رامسر", "value": "Ramsr", "lat": 36.91598892211914, "long": 50.66233444213867}, {"label": "رستمکلا", "value": "Rastmkla", "lat": 36.67808151245117, "long": 53.42604446411133}, {"label": "رویان", "value": "Royan", "lat": 36.57036590576172, "long": 51.9688606262207}, {"label": "رینه", "value": "Rinh", "lat": 35.881988525390625, "long": 52.16975021362305}, {"label": "زرگر محله", "value": "Zargrmhlh", "lat": 36.51618576049805, "long": 52.57441329956055}, {"label": "زیرآب", "value": "Zirab", "lat": 36.17964172363281, "long": 52.97468566894531}, {"label": "ساری", "value": "Sari", "lat": 36.5668830871582, "long": 53.06001663208008}, {"label": "سرخرود", "value": "Sarkhrod", "lat": 36.67657470703125, "long": 52.456790924072266}, {"label": "سلمان شهر", "value": "Salmanshhr", "lat": 36.69902420043945, "long": 51.199954986572266}, {"label": "سورک", "value": "Sork", "lat": 36.59392166137695, "long": 53.211673736572266}, {"label": "شیرگاه", "value": "Shirgah", "lat": 36.28995132446289, "long": 52.880950927734375}, {"label": "شیرود", "value": "Shirod", "lat": 36.84794998168945, "long": 50.790531158447266}, {"label": "عباس آباد", "value": "Abasabad", "lat": 36.72123336791992, "long": 51.115970611572266}, {"label": "فریدونکنار", "value": "Faridonknar", "lat": 36.682804107666016, "long": 52.516685485839844}, {"label": "فریم", "value": "Farim", "lat": 36.17418670654297, "long": 53.26692199707031}, {"label": "قائم شهر", "value": "Ghamshhr", "lat": 36.464351654052734, "long": 52.865081787109375}, {"label": "کتالم وسادات شهر", "value": "Katalmosadatshhr", "lat": 36.8780632019043, "long": 50.71697235107422}, {"label": "کلارآباد", "value": "Kalarabad", "lat": 36.691429138183594, "long": 51.26262664794922}, {"label": "کلاردشت", "value": "Kalardsht", "lat": 36.49369430541992, "long": 51.144954681396484}, {"label": "کله بست", "value": "Kalhbst", "lat": 36.63523483276367, "long": 52.62673568725586}, {"label": "کوهی خیل", "value": "Kohikhil", "lat": 36.68581008911133, "long": 52.90699005126953}, {"label": "کیاسر", "value": "Kiasr", "lat": 36.2379150390625, "long": 53.539405822753906}, {"label": "کیاکلا", "value": "Kiakla", "lat": 36.58187484741211, "long": 52.8148193359375}, {"label": "گتاب", "value": "Gatab", "lat": 36.416595458984375, "long": 52.65651321411133}, {"label": "گزنک", "value": "Gaznk", "lat": 35.9029426574707, "long": 52.2192497253418}, {"label": "گلوگاه", "value": "Galogah", "lat": 36.725135803222656, "long": 53.81105041503906}, {"label": "محمود آباد", "value": "Mahmodabad", "lat": 36.631439208984375, "long": 52.25236892700195}, {"label": "مرزن آباد", "value": "Marznabad", "lat": 36.44631576538086, "long": 51.29559326171875}, {"label": "مرزیکلا", "value": "Marzikla", "lat": 36.36404800415039, "long": 52.7358512878418}, {"label": "نشتارود", "value": "Nashtarod", "lat": 36.74822998046875, "long": 51.03511047363281}, {"label": "نکا", "value": "Naka", "lat": 36.65187454223633, "long": 53.29364776611328}, {"label": "نور", "value": "Nor", "lat": 36.57307434082031, "long": 52.0158805847168}, {"label": "نوشهر", "value": "Noshhr", "lat": 36.6470832824707, "long": 51.49984359741211}]