[{"label": "اردل", "value": "Ardl", "lat": 31.997865676879883, "long": 50.66145324707031}, {"label": "آلونی", "value": "Aloni", "lat": 31.552204132080078, "long": 51.05701446533203}, {"label": "باباحیدر", "value": "Babahidr", "lat": 32.32894515991211, "long": 50.468875885009766}, {"label": "بروجن", "value": "Barojn", "lat": 31.966794967651367, "long": 51.289424896240234}, {"label": "بلداجی", "value": "Baldaji", "lat": 31.937042236328125, "long": 51.0526123046875}, {"label": "بن", "value": "Ban", "lat": 32.542781829833984, "long": 50.74620819091797}, {"label": "جونقان", "value": "Jonghan", "lat": 32.1429557800293, "long": 50.68659973144531}, {"label": "چلگرد", "value": "Chalgrd", "lat": 32.46727752685547, "long": 50.130043029785156}, {"label": "سامان", "value": "Saman", "lat": 32.451576232910156, "long": 50.910457611083984}, {"label": "سفیددشت", "value": "Safiddsht", "lat": 32.1297721862793, "long": 51.18287658691406}, {"label": "سودجان", "value": "Sodjan", "lat": 32.52112579345703, "long": 50.40035629272461}, {"label": "سورشجان", "value": "Sorshjan", "lat": 32.31581497192383, "long": 50.67885208129883}, {"label": "شلمزار", "value": "Shalmzar", "lat": 32.0466194152832, "long": 50.817047119140625}, {"label": "شهرکرد", "value": "Shahrkrd", "lat": 32.31618118286133, "long": 50.85820388793945}, {"label": "طاقانک", "value": "Taghank", "lat": 32.22312545776367, "long": 50.83694076538086}, {"label": "فارسان", "value": "Farsan", "lat": 32.25729751586914, "long": 50.565677642822266}, {"label": "فرادنبه", "value": "Faradnbh", "lat": 32.00857162475586, "long": 51.21474838256836}, {"label": "فرخ شهر", "value": "Farkhshhr", "lat": 32.273983001708984, "long": 50.97294616699219}, {"label": "کیان", "value": "Kian", "lat": 32.2833137512207, "long": 50.88917541503906}, {"label": "گندمان", "value": "Gandman", "lat": 31.86305046081543, "long": 51.153385162353516}, {"label": "گهرو", "value": "Gahro", "lat": 32.00152587890625, "long": 50.886287689208984}, {"label": "لردگان", "value": "Lardgan", "lat": 31.510818481445312, "long": 50.8300895690918}, {"label": "مال خلیفه", "value": "Malkhlifh", "lat": 31.289859771728516, "long": 51.26540756225586}, {"label": "ناغان", "value": "Naghan", "lat": 31.934322357177734, "long": 50.7306022644043}, {"label": "نافچ", "value": "Nafch", "lat": 32.424095153808594, "long": 50.78843688964844}, {"label": "نقنه", "value": "Naghnh", "lat": 31.932336807250977, "long": 51.32884216308594}, {"label": "هفشجان", "value": "Hafshjan", "lat": 32.22559356689453, "long": 50.79463195800781}]