[{"label": "انبارآلوم", "value": "Anbaralom", "lat": 37.13272476196289, "long": 54.61863327026367}, {"label": "اینچه برون", "value": "Ainchhbron", "lat": 37.453834533691406, "long": 54.71900177001953}, {"label": "آزادشهر", "value": "Azadshhr", "lat": 37.086631774902344, "long": 55.16947937011719}, {"label": "آق قلا", "value": "Aghghla", "lat": 37.00954055786133, "long": 54.45674514770508}, {"label": "بندرگز", "value": "Bandrgz", "lat": 36.754058837890625, "long": 53.950714111328125}, {"label": "ترکمن", "value": "Tarkmn", "lat": 36.903011322021484, "long": 54.07501983642578}, {"label": "جلین", "value": "Jalin", "lat": 36.854644775390625, "long": 54.5367431640625}, {"label": "خان ببین", "value": "Khanbbin", "lat": 37.01268005371094, "long": 54.987815856933594}, {"label": "دلند", "value": "Dalnd", "lat": 37.035247802734375, "long": 55.042259216308594}, {"label": "رامیان", "value": "Ramian", "lat": 37.01845169067383, "long": 55.1420783996582}, {"label": "سرخنکلاته", "value": "Sarkhnklath", "lat": 36.88298034667969, "long": 54.569393157958984}, {"label": "سیمین شهر", "value": "Siminshhr", "lat": 37.01129913330078, "long": 54.23208999633789}, {"label": "علی آباد", "value": "Aliabad", "lat": 36.91240310668945, "long": 54.85770034790039}, {"label": "فاضل آباد", "value": "Fazlabad", "lat": 36.89946746826172, "long": 54.75127029418945}, {"label": "کردکوی", "value": "Kardkoy", "lat": 36.794525146484375, "long": 54.10991668701172}, {"label": "کلاله", "value": "Kalalh", "lat": 37.38112258911133, "long": 55.491615295410156}, {"label": "گالیکش", "value": "Galiksh", "lat": 37.27040481567383, "long": 55.43107223510742}, {"label": "گرگان", "value": "Gargan", "lat": 36.84519958496094, "long": 54.42879867553711}, {"label": "گمیش تپه", "value": "Gamishtph", "lat": 37.071659088134766, "long": 54.07542037963867}, {"label": "گنبد کاووس", "value": "Ganbdkavos", "lat": 37.2478141784668, "long": 55.17573928833008}, {"label": "مراوه تپه", "value": "Maravhtph", "lat": 37.90470886230469, "long": 55.961727142333984}, {"label": "مینودشت", "value": "Minodsht", "lat": 37.22966003417969, "long": 55.37508773803711}, {"label": "نگین شهر", "value": "Naginshhr", "lat": 37.13905715942383, "long": 55.164146423339844}, {"label": "نوده خاندوز", "value": "Nodhkhandoz", "lat": 37.07626724243164, "long": 55.26222229003906}, {"label": "نوکنده", "value": "Nokndh", "lat": 36.73976516723633, "long": 53.91312026977539}]