[{"label": "ارکواز", "value": "Arkoaz", "lat": 33.387107849121094, "long": 46.59772491455078}, {"label": "ایلام", "value": "Ailam", "lat": 33.57505416870117, "long": 46.41641616821289}, {"label": "ایوان", "value": "Aivan", "lat": 33.82935333251953, "long": 46.306129455566406}, {"label": "آبدانان", "value": "Abdanan", "lat": 32.98835372924805, "long": 47.424095153808594}, {"label": "آسمان آباد", "value": "Asmanabad", "lat": 33.84938430786133, "long": 46.46562576293945}, {"label": "بدره", "value": "Badrh", "lat": 33.30717086791992, "long": 47.038330078125}, {"label": "پهله", "value": "Pahlh", "lat": 33.01145553588867, "long": 46.8835563659668}, {"label": "توحید", "value": "Tohid", "lat": 33.72682189941406, "long": 47.068294525146484}, {"label": "چوار", "value": "Choar", "lat": 33.69190979003906, "long": 46.29715347290039}, {"label": "دره شهر", "value": "Darhshhr", "lat": 33.14948654174805, "long": 47.38166046142578}, {"label": "دلگشا", "value": "Dalgsha", "lat": 33.40571212768555, "long": 46.59428787231445}, {"label": "دهلران", "value": "Dahlran", "lat": 32.69020080566406, "long": 47.27085494995117}, {"label": "زرنه", "value": "Zarnh", "lat": 33.926212310791016, "long": 46.18672180175781}, {"label": "سراب باغ", "value": "Sarabbagh", "lat": 32.896671295166016, "long": 47.5726318359375}, {"label": "سرابله", "value": "Sarablh", "lat": 33.768226623535156, "long": 46.56136703491211}, {"label": "صالح آباد", "value": "Salhabad", "lat": 33.468772888183594, "long": 46.19106674194336}, {"label": "لومار", "value": "Lomar", "lat": 33.56718444824219, "long": 46.81135559082031}, {"label": "مورموری", "value": "Mormori", "lat": 32.726318359375, "long": 47.67509841918945}, {"label": "موسیان", "value": "Mosian", "lat": 32.52018356323242, "long": 47.377071380615234}, {"label": "مهران", "value": "Mahran", "lat": 33.12202835083008, "long": 46.172889709472656}, {"label": "میمه ", "value": "Mimh", "lat": 33.22662353515625, "long": 46.91864776611328}]