[{"label": "ارجمند", "value": "Arjmnd", "lat": 35.81401824951172, "long": 52.513824462890625}, {"label": "اسلامشهر", "value": "Aslamshhr", "lat": 35.50104522705078, "long": 51.225547790527344}, {"label": "اندیشه", "value": "Andishh", "lat": 35.68739318847656, "long": 51.02239227294922}, {"label": "آبسرد", "value": "Absrd", "lat": 35.621707916259766, "long": 52.15012741088867}, {"label": "آبعلی", "value": "Abali", "lat": 35.75962448120117, "long": 51.96295928955078}, {"label": "باغستان", "value": "Baghstan", "lat": 35.634552001953125, "long": 51.13315200805664}, {"label": "باقرشهر", "value": "Baghrshhr", "lat": 35.5262451171875, "long": 51.40306091308594}, {"label": "بومهن", "value": "Bomhn", "lat": 35.727848052978516, "long": 51.868831634521484}, {"label": "پاکدشت", "value": "Pakdsht", "lat": 35.47431182861328, "long": 51.67570114135742}, {"label": "پردیس", "value": "Pardis", "lat": 35.742347717285156, "long": 51.821407318115234}, {"label": "پیشوا", "value": "Pishoa", "lat": 35.3055534362793, "long": 51.72243881225586}, {"label": "تجریش", "value": "Tajrish", "lat": 35.81037902832031, "long": 51.464759826660156}, {"label": "تهران", "value": "Tahran", "lat": 35.70290756225586, "long": 51.34975814819336}, {"label": "جوادآباد", "value": "Joadabad", "lat": 35.21086120605469, "long": 51.67318344116211}, {"label": "چهاردانگه", "value": "Chahardangh", "lat": 35.59637451171875, "long": 51.3045654296875}, {"label": "حسن آباد ", "value": "Hasnabad", "lat": 35.36765670776367, "long": 51.24298858642578}, {"label": "دماوند", "value": "Damavnd", "lat": 35.69395446777344, "long": 52.047218322753906}, {"label": "رباط کریم", "value": "Rabatkrim", "lat": 35.48320007324219, "long": 51.07991409301758}, {"label": "رودهن", "value": "Rodhn", "lat": 35.73760986328125, "long": 51.910423278808594}, {"label": "ری", "value": "Ri", "lat": 35.60319137573242, "long": 51.4387092590332}, {"label": "شاهدشهر", "value": "Shahdshhr", "lat": 35.571861267089844, "long": 51.08738327026367}, {"label": "شریف آباد", "value": "Sharifabad", "lat": 35.422340393066406, "long": 51.785919189453125}, {"label": "شهریار", "value": "Shahriar", "lat": 35.63301467895508, "long": 51.0597038269043}, {"label": "صالح آباد ", "value": "Salhabad", "lat": 35.504940032958984, "long": 51.18913650512695}, {"label": "صباشهر", "value": "Sabashhr", "lat": 35.578758239746094, "long": 51.11426544189453}, {"label": "صفادشت", "value": "Safadsht", "lat": 35.69135284423828, "long": 50.840694427490234}, {"label": "فردوسیه", "value": "Fardosih", "lat": 35.6019287109375, "long": 51.063209533691406}, {"label": "فرون آباد", "value": "Faronabad", "lat": 35.505271911621094, "long": 51.62708282470703}, {"label": "فشم", "value": "Fashm", "lat": 35.9017333984375, "long": 51.51983642578125}, {"label": "فیروزکوه", "value": "Firozkoh", "lat": 35.75455856323242, "long": 52.77387237548828}, {"label": "قدس", "value": "Ghads", "lat": 35.71248245239258, "long": 51.112892150878906}, {"label": "قرچک", "value": "Gharchk", "lat": 35.415794372558594, "long": 51.586673736572266}, {"label": "کهریزک", "value": "Kahrizk", "lat": 35.5238151550293, "long": 51.3551025390625}, {"label": "کیلان", "value": "Kilan", "lat": 35.556148529052734, "long": 52.162872314453125}, {"label": "گلستان", "value": "Galstan", "lat": 35.51601028442383, "long": 51.16218948364258}, {"label": "لواسان", "value": "Loasan", "lat": 35.819400787353516, "long": 51.637290954589844}, {"label": "ملارد", "value": "Malard", "lat": 35.654701232910156, "long": 50.97917556762695}, {"label": "نسیم شهر", "value": "Nasimshhr", "lat": 35.55868911743164, "long": 51.169490814208984}, {"label": "نصیرآباد", "value": "Nasirabad", "lat": 35.49018859863281, "long": 51.14104461669922}, {"label": "وحیدیه", "value": "Vahidih", "lat": 35.605220794677734, "long": 51.02610397338867}, {"label": "ورامین", "value": "Varamin", "lat": 35.32939529418945, "long": 51.63468551635742}]